test.tdm

CCSDS_TDM_VERS = 1.0                          
COMMENT HERL TDM positional data              
CREATION_DATE = 2017-04-21T08:35:00
ORIGINATOR = NERC/SGF                         
META_START                                    
TIME_SYSTEM = UTC                             
PARTICIPANT_1 = 41788
PARTICIPANT_2 = 4033463.1, 23662.8, 4924305.6 (HERL) 
MODE = SEQUENTIAL                             
PATH = 1,2                                    
ANGLE_TYPE = AZEL                             
META_STOP                                     
DATA_START                                    
ANGLE_1 = 2017-04-20T20:44:04.43    154.2597
ANGLE_2 = 2017-04-20T20:44:04.43     31.3667
ANGLE_1 = 2017-04-20T20:44:04.53    154.2534
ANGLE_2 = 2017-04-20T20:44:04.53     31.3901
ANGLE_1 = 2017-04-20T20:44:04.63    154.2472
ANGLE_2 = 2017-04-20T20:44:04.63     31.4136
ANGLE_1 = 2017-04-20T20:44:04.73    154.2409
ANGLE_2 = 2017-04-20T20:44:04.73     31.4374
ANGLE_1 = 2017-04-20T20:44:04.83    154.2347
ANGLE_2 = 2017-04-20T20:44:04.83     31.4612
ANGLE_1 = 2017-04-20T20:44:04.93    154.2284
ANGLE_2 = 2017-04-20T20:44:04.93     31.4851
ANGLE_1 = 2017-04-20T20:44:05.03    154.2221
ANGLE_2 = 2017-04-20T20:44:05.03     31.5089
ANGLE_1 = 2017-04-20T20:44:05.13    154.2159
ANGLE_2 = 2017-04-20T20:44:05.13     31.5326
ANGLE_1 = 2017-04-20T20:44:05.23    154.2095
ANGLE_2 = 2017-04-20T20:44:05.23     31.5564
ANGLE_1 = 2017-04-20T20:44:05.33    154.2032
ANGLE_2 = 2017-04-20T20:44:05.33     31.5805
ANGLE_1 = 2017-04-20T20:44:05.43    154.1969
ANGLE_2 = 2017-04-20T20:44:05.43     31.6042
ANGLE_1 = 2017-04-20T20:44:05.53    154.1904
ANGLE_2 = 2017-04-20T20:44:05.53     31.6282
ANGLE_1 = 2017-04-20T20:44:05.63    154.1841
ANGLE_2 = 2017-04-20T20:44:05.63     31.6524
ANGLE_1 = 2017-04-20T20:44:05.73    154.1777
ANGLE_2 = 2017-04-20T20:44:05.73     31.6766
ANGLE_1 = 2017-04-20T20:44:05.83    154.1714
ANGLE_2 = 2017-04-20T20:44:05.83     31.7008
ANGLE_1 = 2017-04-20T20:44:05.93    154.1650
ANGLE_2 = 2017-04-20T20:44:05.93     31.7249
ANGLE_1 = 2017-04-20T20:44:06.03    154.1586
ANGLE_2 = 2017-04-20T20:44:06.03     31.7490
ANGLE_1 = 2017-04-20T20:44:06.13    154.1522
ANGLE_2 = 2017-04-20T20:44:06.13     31.7729
ANGLE_1 = 2017-04-20T20:44:06.23    154.1458
ANGLE_2 = 2017-04-20T20:44:06.23     31.7968
ANGLE_1 = 2017-04-20T20:44:06.33    154.1394
ANGLE_2 = 2017-04-20T20:44:06.33     31.8207
ANGLE_1 = 2017-04-20T20:44:06.43    154.1330
ANGLE_2 = 2017-04-20T20:44:06.43     31.8444
ANGLE_1 = 2017-04-20T20:44:06.53    154.1264
ANGLE_2 = 2017-04-20T20:44:06.53     31.8684
ANGLE_1 = 2017-04-20T20:44:06.63    154.1200
ANGLE_2 = 2017-04-20T20:44:06.63     31.8923
ANGLE_1 = 2017-04-20T20:44:06.73    154.1136
ANGLE_2 = 2017-04-20T20:44:06.73     31.9164
ANGLE_1 = 2017-04-20T20:44:06.83    154.1071
ANGLE_2 = 2017-04-20T20:44:06.83     31.9406
ANGLE_1 = 2017-04-20T20:44:06.93    154.1006
ANGLE_2 = 2017-04-20T20:44:06.93     31.9645
ANGLE_1 = 2017-04-20T20:44:07.03    154.0942
ANGLE_2 = 2017-04-20T20:44:07.03     31.9889
ANGLE_1 = 2017-04-20T20:44:07.13    154.0877
ANGLE_2 = 2017-04-20T20:44:07.13     32.0130
ANGLE_1 = 2017-04-20T20:44:07.23    154.0811
ANGLE_2 = 2017-04-20T20:44:07.23     32.0372
ANGLE_1 = 2017-04-20T20:44:07.33    154.0746
ANGLE_2 = 2017-04-20T20:44:07.33     32.0613
ANGLE_1 = 2017-04-20T20:44:07.44    154.0681
ANGLE_2 = 2017-04-20T20:44:07.44     32.0853
ANGLE_1 = 2017-04-20T20:44:07.54    154.0615
ANGLE_2 = 2017-04-20T20:44:07.54     32.1095
ANGLE_1 = 2017-04-20T20:44:07.64    154.0549
ANGLE_2 = 2017-04-20T20:44:07.64     32.1343
ANGLE_1 = 2017-04-20T20:44:07.74    154.0483
ANGLE_2 = 2017-04-20T20:44:07.74     32.1592
ANGLE_1 = 2017-04-20T20:44:07.84    154.0418
ANGLE_2 = 2017-04-20T20:44:07.84     32.1836
ANGLE_1 = 2017-04-20T20:44:07.94    154.0352
ANGLE_2 = 2017-04-20T20:44:07.94     32.2080
ANGLE_1 = 2017-04-20T20:44:08.04    154.0286
ANGLE_2 = 2017-04-20T20:44:08.04     32.2326
ANGLE_1 = 2017-04-20T20:44:08.14    154.0220
ANGLE_2 = 2017-04-20T20:44:08.14     32.2571
ANGLE_1 = 2017-04-20T20:44:08.24    154.0154
ANGLE_2 = 2017-04-20T20:44:08.24     32.2812
ANGLE_1 = 2017-04-20T20:44:08.34    154.0088
ANGLE_2 = 2017-04-20T20:44:08.34     32.3057
ANGLE_1 = 2017-04-20T20:44:08.44    154.0021
ANGLE_2 = 2017-04-20T20:44:08.44     32.3298
ANGLE_1 = 2017-04-20T20:44:08.54    153.9954
ANGLE_2 = 2017-04-20T20:44:08.54     32.3542
ANGLE_1 = 2017-04-20T20:44:08.64    153.9888
ANGLE_2 = 2017-04-20T20:44:08.64     32.3785
ANGLE_1 = 2017-04-20T20:44:08.74    153.9821
ANGLE_2 = 2017-04-20T20:44:08.74     32.4029
ANGLE_1 = 2017-04-20T20:44:08.84    153.9754
ANGLE_2 = 2017-04-20T20:44:08.84     32.4275
ANGLE_1 = 2017-04-20T20:44:08.94    153.9688
ANGLE_2 = 2017-04-20T20:44:08.94     32.4519
ANGLE_1 = 2017-04-20T20:44:09.04    153.9621
ANGLE_2 = 2017-04-20T20:44:09.04     32.4766
ANGLE_1 = 2017-04-20T20:44:09.14    153.9555
ANGLE_2 = 2017-04-20T20:44:09.14     32.5014
ANGLE_1 = 2017-04-20T20:44:09.24    153.9493
ANGLE_2 = 2017-04-20T20:44:09.24     32.5259
ANGLE_1 = 2017-04-20T20:44:09.34    153.9427
ANGLE_2 = 2017-04-20T20:44:09.34     32.5506
ANGLE_1 = 2017-04-20T20:44:09.44    153.9358
ANGLE_2 = 2017-04-20T20:44:09.44     32.5755
ANGLE_1 = 2017-04-20T20:44:09.54    153.9289
ANGLE_2 = 2017-04-20T20:44:09.54     32.6002
ANGLE_1 = 2017-04-20T20:44:09.64    153.9222
ANGLE_2 = 2017-04-20T20:44:09.64     32.6252
ANGLE_1 = 2017-04-20T20:44:09.74    153.9154
ANGLE_2 = 2017-04-20T20:44:09.74     32.6502
ANGLE_1 = 2017-04-20T20:44:09.84    153.9087
ANGLE_2 = 2017-04-20T20:44:09.84     32.6751
ANGLE_1 = 2017-04-20T20:44:09.94    153.9019
ANGLE_2 = 2017-04-20T20:44:09.94     32.7002
ANGLE_1 = 2017-04-20T20:44:10.04    153.8951
ANGLE_2 = 2017-04-20T20:44:10.04     32.7252
ANGLE_1 = 2017-04-20T20:44:10.14    153.8882
ANGLE_2 = 2017-04-20T20:44:10.14     32.7503
ANGLE_1 = 2017-04-20T20:44:10.24    153.8813
ANGLE_2 = 2017-04-20T20:44:10.24     32.7750
ANGLE_1 = 2017-04-20T20:44:10.34    153.8745
ANGLE_2 = 2017-04-20T20:44:10.34     32.7996
ANGLE_1 = 2017-04-20T20:44:10.44    153.8676
ANGLE_2 = 2017-04-20T20:44:10.44     32.8242
ANGLE_1 = 2017-04-20T20:44:10.54    153.8607
ANGLE_2 = 2017-04-20T20:44:10.54     32.8490
ANGLE_1 = 2017-04-20T20:44:10.64    153.8539
ANGLE_2 = 2017-04-20T20:44:10.64     32.8736
ANGLE_1 = 2017-04-20T20:44:10.74    153.8470
ANGLE_2 = 2017-04-20T20:44:10.74     32.8986
ANGLE_1 = 2017-04-20T20:44:10.84    153.8402
ANGLE_2 = 2017-04-20T20:44:10.84     32.9233
ANGLE_1 = 2017-04-20T20:44:10.94    153.8333
ANGLE_2 = 2017-04-20T20:44:10.94     32.9484
ANGLE_1 = 2017-04-20T20:44:11.04    153.8263
ANGLE_2 = 2017-04-20T20:44:11.04     32.9735
ANGLE_1 = 2017-04-20T20:44:11.14    153.8192
ANGLE_2 = 2017-04-20T20:44:11.14     32.9986
ANGLE_1 = 2017-04-20T20:44:11.24    153.8123
ANGLE_2 = 2017-04-20T20:44:11.24     33.0237
ANGLE_1 = 2017-04-20T20:44:11.34    153.8054
ANGLE_2 = 2017-04-20T20:44:11.34     33.0487
ANGLE_1 = 2017-04-20T20:44:11.44    153.7984
ANGLE_2 = 2017-04-20T20:44:11.44     33.0740
ANGLE_1 = 2017-04-20T20:44:11.54    153.7914
ANGLE_2 = 2017-04-20T20:44:11.54     33.0993
ANGLE_1 = 2017-04-20T20:44:11.64    153.7844
ANGLE_2 = 2017-04-20T20:44:11.64     33.1246
ANGLE_1 = 2017-04-20T20:44:11.74    153.7774
ANGLE_2 = 2017-04-20T20:44:11.74     33.1500
ANGLE_1 = 2017-04-20T20:44:11.84    153.7704
ANGLE_2 = 2017-04-20T20:44:11.84     33.1755
ANGLE_1 = 2017-04-20T20:44:11.94    153.7634
ANGLE_2 = 2017-04-20T20:44:11.94     33.2009
ANGLE_1 = 2017-04-20T20:44:12.04    153.7563
ANGLE_2 = 2017-04-20T20:44:12.04     33.2263
ANGLE_1 = 2017-04-20T20:44:12.14    153.7492
ANGLE_2 = 2017-04-20T20:44:12.14     33.2518
ANGLE_1 = 2017-04-20T20:44:12.24    153.7422
ANGLE_2 = 2017-04-20T20:44:12.24     33.2769
ANGLE_1 = 2017-04-20T20:44:12.34    153.7351
ANGLE_2 = 2017-04-20T20:44:12.34     33.3020
ANGLE_1 = 2017-04-20T20:44:12.44    153.7281
ANGLE_2 = 2017-04-20T20:44:12.44     33.3271
ANGLE_1 = 2017-04-20T20:44:12.54    153.7211
ANGLE_2 = 2017-04-20T20:44:12.54     33.3522
ANGLE_1 = 2017-04-20T20:44:12.64    153.7138
ANGLE_2 = 2017-04-20T20:44:12.64     33.3775
ANGLE_1 = 2017-04-20T20:44:12.74    153.7067
ANGLE_2 = 2017-04-20T20:44:12.74     33.4027
ANGLE_1 = 2017-04-20T20:44:12.84    153.6995
ANGLE_2 = 2017-04-20T20:44:12.84     33.4280
ANGLE_1 = 2017-04-20T20:44:12.94    153.6924
ANGLE_2 = 2017-04-20T20:44:12.94     33.4536
ANGLE_1 = 2017-04-20T20:44:13.04    153.6852
ANGLE_2 = 2017-04-20T20:44:13.04     33.4790
ANGLE_1 = 2017-04-20T20:44:13.14    153.6780
ANGLE_2 = 2017-04-20T20:44:13.14     33.5045
ANGLE_1 = 2017-04-20T20:44:13.24    153.6709
ANGLE_2 = 2017-04-20T20:44:13.24     33.5301
ANGLE_1 = 2017-04-20T20:44:13.34    153.6638
ANGLE_2 = 2017-04-20T20:44:13.34     33.5556
ANGLE_1 = 2017-04-20T20:44:13.44    153.6565
ANGLE_2 = 2017-04-20T20:44:13.44     33.5812
ANGLE_1 = 2017-04-20T20:44:13.54    153.6493
ANGLE_2 = 2017-04-20T20:44:13.54     33.6070
ANGLE_1 = 2017-04-20T20:44:13.64    153.6421
ANGLE_2 = 2017-04-20T20:44:13.64     33.6327
ANGLE_1 = 2017-04-20T20:44:13.74    153.6347
ANGLE_2 = 2017-04-20T20:44:13.74     33.6586
ANGLE_1 = 2017-04-20T20:44:13.84    153.6275
ANGLE_2 = 2017-04-20T20:44:13.84     33.6847
ANGLE_1 = 2017-04-20T20:44:13.94    153.6203
ANGLE_2 = 2017-04-20T20:44:13.94     33.7105
ANGLE_1 = 2017-04-20T20:44:14.04    153.6130
ANGLE_2 = 2017-04-20T20:44:14.04     33.7362
ANGLE_1 = 2017-04-20T20:44:14.14    153.6057
ANGLE_2 = 2017-04-20T20:44:14.14     33.7620
ANGLE_1 = 2017-04-20T20:44:14.24    153.5984
ANGLE_2 = 2017-04-20T20:44:14.24     33.7877
ANGLE_1 = 2017-04-20T20:44:14.34    153.5911
ANGLE_2 = 2017-04-20T20:44:14.34     33.8132
ANGLE_1 = 2017-04-20T20:44:14.44    153.5838
ANGLE_2 = 2017-04-20T20:44:14.44     33.8387
ANGLE_1 = 2017-04-20T20:44:14.54    153.5763
ANGLE_2 = 2017-04-20T20:44:14.54     33.8643
ANGLE_1 = 2017-04-20T20:44:14.64    153.5690
ANGLE_2 = 2017-04-20T20:44:14.64     33.8899
ANGLE_1 = 2017-04-20T20:44:14.74    153.5616
ANGLE_2 = 2017-04-20T20:44:14.74     33.9157
ANGLE_1 = 2017-04-20T20:44:14.84    153.5543
ANGLE_2 = 2017-04-20T20:44:14.84     33.9416
ANGLE_1 = 2017-04-20T20:44:14.94    153.5472
ANGLE_2 = 2017-04-20T20:44:14.94     33.9674
ANGLE_1 = 2017-04-20T20:44:15.04    153.5403
ANGLE_2 = 2017-04-20T20:44:15.04     33.9935
ANGLE_1 = 2017-04-20T20:44:15.14    153.5331
ANGLE_2 = 2017-04-20T20:44:15.14     34.0194
ANGLE_1 = 2017-04-20T20:44:15.24    153.5253
ANGLE_2 = 2017-04-20T20:44:15.24     34.0453
ANGLE_1 = 2017-04-20T20:44:15.34    153.5177
ANGLE_2 = 2017-04-20T20:44:15.34     34.0713
ANGLE_1 = 2017-04-20T20:44:15.44    153.5104
ANGLE_2 = 2017-04-20T20:44:15.44     34.0975
ANGLE_1 = 2017-04-20T20:44:15.54    153.5030
ANGLE_2 = 2017-04-20T20:44:15.54     34.1236
ANGLE_1 = 2017-04-20T20:44:15.64    153.4955
ANGLE_2 = 2017-04-20T20:44:15.64     34.1500
ANGLE_1 = 2017-04-20T20:44:15.74    153.4879
ANGLE_2 = 2017-04-20T20:44:15.74     34.1764
ANGLE_1 = 2017-04-20T20:44:15.84    153.4805
ANGLE_2 = 2017-04-20T20:44:15.84     34.2029
ANGLE_1 = 2017-04-20T20:44:15.94    153.4730
ANGLE_2 = 2017-04-20T20:44:15.94     34.2290
ANGLE_1 = 2017-04-20T20:44:16.04    153.4655
ANGLE_2 = 2017-04-20T20:44:16.04     34.2553
ANGLE_1 = 2017-04-20T20:44:16.14    153.4579
ANGLE_2 = 2017-04-20T20:44:16.14     34.2813
ANGLE_1 = 2017-04-20T20:44:16.24    153.4503
ANGLE_2 = 2017-04-20T20:44:16.24     34.3074
ANGLE_1 = 2017-04-20T20:44:16.34    153.4427
ANGLE_2 = 2017-04-20T20:44:16.34     34.3333
ANGLE_1 = 2017-04-20T20:44:16.44    153.4352
ANGLE_2 = 2017-04-20T20:44:16.44     34.3592
ANGLE_1 = 2017-04-20T20:44:16.54    153.4276
ANGLE_2 = 2017-04-20T20:44:16.54     34.3854
ANGLE_1 = 2017-04-20T20:44:16.64    153.4200
ANGLE_2 = 2017-04-20T20:44:16.64     34.4115
ANGLE_1 = 2017-04-20T20:44:16.74    153.4123
ANGLE_2 = 2017-04-20T20:44:16.74     34.4377
ANGLE_1 = 2017-04-20T20:44:16.84    153.4048
ANGLE_2 = 2017-04-20T20:44:16.84     34.4641
ANGLE_1 = 2017-04-20T20:44:16.94    153.3970
ANGLE_2 = 2017-04-20T20:44:16.94     34.4905
ANGLE_1 = 2017-04-20T20:44:17.04    153.3893
ANGLE_2 = 2017-04-20T20:44:17.04     34.5170
ANGLE_1 = 2017-04-20T20:44:17.14    153.3817
ANGLE_2 = 2017-04-20T20:44:17.14     34.5433
ANGLE_1 = 2017-04-20T20:44:17.24    153.3740
ANGLE_2 = 2017-04-20T20:44:17.24     34.5698
ANGLE_1 = 2017-04-20T20:44:17.34    153.3663
ANGLE_2 = 2017-04-20T20:44:17.34     34.5964
ANGLE_1 = 2017-04-20T20:44:17.44    153.3586
ANGLE_2 = 2017-04-20T20:44:17.44     34.6229
ANGLE_1 = 2017-04-20T20:44:17.54    153.3509
ANGLE_2 = 2017-04-20T20:44:17.54     34.6495
ANGLE_1 = 2017-04-20T20:44:17.64    153.3431
ANGLE_2 = 2017-04-20T20:44:17.64     34.6766
ANGLE_1 = 2017-04-20T20:44:17.74    153.3353
ANGLE_2 = 2017-04-20T20:44:17.74     34.7035
ANGLE_1 = 2017-04-20T20:44:17.84    153.3276
ANGLE_2 = 2017-04-20T20:44:17.84     34.7302
ANGLE_1 = 2017-04-20T20:44:17.94    153.3198
ANGLE_2 = 2017-04-20T20:44:17.94     34.7568
ANGLE_1 = 2017-04-20T20:44:18.04    153.3120
ANGLE_2 = 2017-04-20T20:44:18.04     34.7832
ANGLE_1 = 2017-04-20T20:44:18.14    153.3042
ANGLE_2 = 2017-04-20T20:44:18.14     34.8096
ANGLE_1 = 2017-04-20T20:44:18.24    153.2965
ANGLE_2 = 2017-04-20T20:44:18.24     34.8362
ANGLE_1 = 2017-04-20T20:44:18.34    153.2886
ANGLE_2 = 2017-04-20T20:44:18.34     34.8626
ANGLE_1 = 2017-04-20T20:44:18.44    153.2807
ANGLE_2 = 2017-04-20T20:44:18.44     34.8885
ANGLE_1 = 2017-04-20T20:44:18.54    153.2727
ANGLE_2 = 2017-04-20T20:44:18.54     34.9147
ANGLE_1 = 2017-04-20T20:44:18.64    153.2650
ANGLE_2 = 2017-04-20T20:44:18.64     34.9416
ANGLE_1 = 2017-04-20T20:44:18.74    153.2571
ANGLE_2 = 2017-04-20T20:44:18.74     34.9686
ANGLE_1 = 2017-04-20T20:44:18.84    153.2492
ANGLE_2 = 2017-04-20T20:44:18.84     34.9954
ANGLE_1 = 2017-04-20T20:44:18.94    153.2413
ANGLE_2 = 2017-04-20T20:44:18.94     35.0222
ANGLE_1 = 2017-04-20T20:44:19.04    153.2334
ANGLE_2 = 2017-04-20T20:44:19.04     35.0491
ANGLE_1 = 2017-04-20T20:44:19.14    153.2253
ANGLE_2 = 2017-04-20T20:44:19.14     35.0761
ANGLE_1 = 2017-04-20T20:44:19.24    153.2175
ANGLE_2 = 2017-04-20T20:44:19.24     35.1030
ANGLE_1 = 2017-04-20T20:44:19.34    153.2095
ANGLE_2 = 2017-04-20T20:44:19.34     35.1301
ANGLE_1 = 2017-04-20T20:44:19.44    153.2014
ANGLE_2 = 2017-04-20T20:44:19.44     35.1574
ANGLE_1 = 2017-04-20T20:44:19.54    153.1935
ANGLE_2 = 2017-04-20T20:44:19.54     35.1846
ANGLE_1 = 2017-04-20T20:44:19.64    153.1855
ANGLE_2 = 2017-04-20T20:44:19.64     35.2118
ANGLE_1 = 2017-04-20T20:44:19.74    153.1775
ANGLE_2 = 2017-04-20T20:44:19.74     35.2391
ANGLE_1 = 2017-04-20T20:44:19.84    153.1693
ANGLE_2 = 2017-04-20T20:44:19.84     35.2662
ANGLE_1 = 2017-04-20T20:44:19.94    153.1613
ANGLE_2 = 2017-04-20T20:44:19.94     35.2930
ANGLE_1 = 2017-04-20T20:44:20.04    153.1532
ANGLE_2 = 2017-04-20T20:44:20.04     35.3199
ANGLE_1 = 2017-04-20T20:44:20.14    153.1452
ANGLE_2 = 2017-04-20T20:44:20.14     35.3467
ANGLE_1 = 2017-04-20T20:44:20.24    153.1370
ANGLE_2 = 2017-04-20T20:44:20.24     35.3736
ANGLE_1 = 2017-04-20T20:44:20.34    153.1290
ANGLE_2 = 2017-04-20T20:44:20.34     35.4005
ANGLE_1 = 2017-04-20T20:44:20.44    153.1209
ANGLE_2 = 2017-04-20T20:44:20.44     35.4277
ANGLE_1 = 2017-04-20T20:44:20.54    153.1127
ANGLE_2 = 2017-04-20T20:44:20.54     35.4548
ANGLE_1 = 2017-04-20T20:44:20.64    153.1045
ANGLE_2 = 2017-04-20T20:44:20.64     35.4822
ANGLE_1 = 2017-04-20T20:44:20.74    153.0964
ANGLE_2 = 2017-04-20T20:44:20.74     35.5095
ANGLE_1 = 2017-04-20T20:44:20.84    153.0882
ANGLE_2 = 2017-04-20T20:44:20.84     35.5366
ANGLE_1 = 2017-04-20T20:44:20.94    153.0800
ANGLE_2 = 2017-04-20T20:44:20.94     35.5640
ANGLE_1 = 2017-04-20T20:44:21.04    153.0718
ANGLE_2 = 2017-04-20T20:44:21.04     35.5916
ANGLE_1 = 2017-04-20T20:44:21.14    153.0636
ANGLE_2 = 2017-04-20T20:44:21.14     35.6189
ANGLE_1 = 2017-04-20T20:44:21.24    153.0552
ANGLE_2 = 2017-04-20T20:44:21.24     35.6464
ANGLE_1 = 2017-04-20T20:44:21.34    153.0470
ANGLE_2 = 2017-04-20T20:44:21.34     35.6742
ANGLE_1 = 2017-04-20T20:44:21.44    153.0388
ANGLE_2 = 2017-04-20T20:44:21.44     35.7020
ANGLE_1 = 2017-04-20T20:44:21.54    153.0305
ANGLE_2 = 2017-04-20T20:44:21.54     35.7299
ANGLE_1 = 2017-04-20T20:44:21.64    153.0226
ANGLE_2 = 2017-04-20T20:44:21.64     35.7572
ANGLE_1 = 2017-04-20T20:44:21.74    153.0148
ANGLE_2 = 2017-04-20T20:44:21.74     35.7846
ANGLE_1 = 2017-04-20T20:44:21.84    153.0064
ANGLE_2 = 2017-04-20T20:44:21.84     35.8119
ANGLE_1 = 2017-04-20T20:44:21.94    152.9978
ANGLE_2 = 2017-04-20T20:44:21.94     35.8391
ANGLE_1 = 2017-04-20T20:44:22.04    152.9893
ANGLE_2 = 2017-04-20T20:44:22.04     35.8663
ANGLE_1 = 2017-04-20T20:44:22.14    152.9810
ANGLE_2 = 2017-04-20T20:44:22.14     35.8935
ANGLE_1 = 2017-04-20T20:44:22.24    152.9728
ANGLE_2 = 2017-04-20T20:44:22.24     35.9212
ANGLE_1 = 2017-04-20T20:44:22.34    152.9643
ANGLE_2 = 2017-04-20T20:44:22.34     35.9491
ANGLE_1 = 2017-04-20T20:44:22.44    152.9559
ANGLE_2 = 2017-04-20T20:44:22.44     35.9768
ANGLE_1 = 2017-04-20T20:44:22.54    152.9475
ANGLE_2 = 2017-04-20T20:44:22.54     36.0043
ANGLE_1 = 2017-04-20T20:44:22.64    152.9390
ANGLE_2 = 2017-04-20T20:44:22.64     36.0321
ANGLE_1 = 2017-04-20T20:44:22.74    152.9305
ANGLE_2 = 2017-04-20T20:44:22.74     36.0599
ANGLE_1 = 2017-04-20T20:44:22.84    152.9220
ANGLE_2 = 2017-04-20T20:44:22.84     36.0877
ANGLE_1 = 2017-04-20T20:44:22.94    152.9135
ANGLE_2 = 2017-04-20T20:44:22.94     36.1156
ANGLE_1 = 2017-04-20T20:44:23.04    152.9051
ANGLE_2 = 2017-04-20T20:44:23.04     36.1436
ANGLE_1 = 2017-04-20T20:44:23.14    152.8965
ANGLE_2 = 2017-04-20T20:44:23.14     36.1718
ANGLE_1 = 2017-04-20T20:44:23.24    152.8880
ANGLE_2 = 2017-04-20T20:44:23.24     36.2002
ANGLE_1 = 2017-04-20T20:44:23.34    152.8794
ANGLE_2 = 2017-04-20T20:44:23.34     36.2282
ANGLE_1 = 2017-04-20T20:44:23.44    152.8708
ANGLE_2 = 2017-04-20T20:44:23.44     36.2561
ANGLE_1 = 2017-04-20T20:44:23.54    152.8622
ANGLE_2 = 2017-04-20T20:44:23.54     36.2840
ANGLE_1 = 2017-04-20T20:44:23.64    152.8536
ANGLE_2 = 2017-04-20T20:44:23.64     36.3117
ANGLE_1 = 2017-04-20T20:44:23.74    152.8450
ANGLE_2 = 2017-04-20T20:44:23.74     36.3396
ANGLE_1 = 2017-04-20T20:44:23.84    152.8364
ANGLE_2 = 2017-04-20T20:44:23.84     36.3670
ANGLE_1 = 2017-04-20T20:44:23.94    152.8278
ANGLE_2 = 2017-04-20T20:44:23.94     36.3948
ANGLE_1 = 2017-04-20T20:44:24.04    152.8190
ANGLE_2 = 2017-04-20T20:44:24.04     36.4230
ANGLE_1 = 2017-04-20T20:44:24.14    152.8103
ANGLE_2 = 2017-04-20T20:44:24.14     36.4511
ANGLE_1 = 2017-04-20T20:44:24.24    152.8017
ANGLE_2 = 2017-04-20T20:44:24.24     36.4788
ANGLE_1 = 2017-04-20T20:44:24.34    152.7930
ANGLE_2 = 2017-04-20T20:44:24.34     36.5074
ANGLE_1 = 2017-04-20T20:44:24.44    152.7842
ANGLE_2 = 2017-04-20T20:44:24.44     36.5356
ANGLE_1 = 2017-04-20T20:44:24.54    152.7755
ANGLE_2 = 2017-04-20T20:44:24.54     36.5638
ANGLE_1 = 2017-04-20T20:44:24.64    152.7667
ANGLE_2 = 2017-04-20T20:44:24.64     36.5919
ANGLE_1 = 2017-04-20T20:44:24.74    152.7579
ANGLE_2 = 2017-04-20T20:44:24.74     36.6204
ANGLE_1 = 2017-04-20T20:44:24.84    152.7491
ANGLE_2 = 2017-04-20T20:44:24.84     36.6489
ANGLE_1 = 2017-04-20T20:44:24.94    152.7403
ANGLE_2 = 2017-04-20T20:44:24.94     36.6776
ANGLE_1 = 2017-04-20T20:44:25.04    152.7315
ANGLE_2 = 2017-04-20T20:44:25.04     36.7063
ANGLE_1 = 2017-04-20T20:44:25.14    152.7227
ANGLE_2 = 2017-04-20T20:44:25.14     36.7347
ANGLE_1 = 2017-04-20T20:44:25.24    152.7138
ANGLE_2 = 2017-04-20T20:44:25.24     36.7632
ANGLE_1 = 2017-04-20T20:44:25.34    152.7048
ANGLE_2 = 2017-04-20T20:44:25.34     36.7915
ANGLE_1 = 2017-04-20T20:44:25.44    152.6961
ANGLE_2 = 2017-04-20T20:44:25.44     36.8196
ANGLE_1 = 2017-04-20T20:44:25.54    152.6871
ANGLE_2 = 2017-04-20T20:44:25.54     36.8479
ANGLE_1 = 2017-04-20T20:44:25.64    152.6782
ANGLE_2 = 2017-04-20T20:44:25.64     36.8759
ANGLE_1 = 2017-04-20T20:44:25.74    152.6693
ANGLE_2 = 2017-04-20T20:44:25.74     36.9043
ANGLE_1 = 2017-04-20T20:44:25.84    152.6603
ANGLE_2 = 2017-04-20T20:44:25.84     36.9327
ANGLE_1 = 2017-04-20T20:44:25.94    152.6512
ANGLE_2 = 2017-04-20T20:44:25.94     36.9613
ANGLE_1 = 2017-04-20T20:44:26.04    152.6423
ANGLE_2 = 2017-04-20T20:44:26.04     36.9897
ANGLE_1 = 2017-04-20T20:44:26.14    152.6333
ANGLE_2 = 2017-04-20T20:44:26.14     37.0186
ANGLE_1 = 2017-04-20T20:44:26.24    152.6243
ANGLE_2 = 2017-04-20T20:44:26.24     37.0471
ANGLE_1 = 2017-04-20T20:44:26.34    152.6153
ANGLE_2 = 2017-04-20T20:44:26.34     37.0758
ANGLE_1 = 2017-04-20T20:44:26.44    152.6062
ANGLE_2 = 2017-04-20T20:44:26.44     37.1046
ANGLE_1 = 2017-04-20T20:44:26.54    152.5971
ANGLE_2 = 2017-04-20T20:44:26.54     37.1335
ANGLE_1 = 2017-04-20T20:44:26.64    152.5879
ANGLE_2 = 2017-04-20T20:44:26.64     37.1624
ANGLE_1 = 2017-04-20T20:44:26.74    152.5789
ANGLE_2 = 2017-04-20T20:44:26.74     37.1918
ANGLE_1 = 2017-04-20T20:44:26.84    152.5698
ANGLE_2 = 2017-04-20T20:44:26.84     37.2206
ANGLE_1 = 2017-04-20T20:44:26.94    152.5607
ANGLE_2 = 2017-04-20T20:44:26.94     37.2496
ANGLE_1 = 2017-04-20T20:44:27.04    152.5515
ANGLE_2 = 2017-04-20T20:44:27.04     37.2784
ANGLE_1 = 2017-04-20T20:44:27.14    152.5423
ANGLE_2 = 2017-04-20T20:44:27.14     37.3070
ANGLE_1 = 2017-04-20T20:44:27.25    152.5332
ANGLE_2 = 2017-04-20T20:44:27.25     37.3355
ANGLE_1 = 2017-04-20T20:44:27.35    152.5239
ANGLE_2 = 2017-04-20T20:44:27.35     37.3642
ANGLE_1 = 2017-04-20T20:44:27.45    152.5147
ANGLE_2 = 2017-04-20T20:44:27.45     37.3929
ANGLE_1 = 2017-04-20T20:44:27.55    152.5055
ANGLE_2 = 2017-04-20T20:44:27.55     37.4213
ANGLE_1 = 2017-04-20T20:44:27.65    152.4962
ANGLE_2 = 2017-04-20T20:44:27.65     37.4506
ANGLE_1 = 2017-04-20T20:44:27.75    152.4869
ANGLE_2 = 2017-04-20T20:44:27.75     37.4797
ANGLE_1 = 2017-04-20T20:44:27.85    152.4776
ANGLE_2 = 2017-04-20T20:44:27.85     37.5088
ANGLE_1 = 2017-04-20T20:44:27.95    152.4682
ANGLE_2 = 2017-04-20T20:44:27.95     37.5378
ANGLE_1 = 2017-04-20T20:44:28.05    152.4590
ANGLE_2 = 2017-04-20T20:44:28.05     37.5670
ANGLE_1 = 2017-04-20T20:44:28.15    152.4497
ANGLE_2 = 2017-04-20T20:44:28.15     37.5962
ANGLE_1 = 2017-04-20T20:44:28.25    152.4403
ANGLE_2 = 2017-04-20T20:44:28.25     37.6256
ANGLE_1 = 2017-04-20T20:44:28.35    152.4308
ANGLE_2 = 2017-04-20T20:44:28.35     37.6550
ANGLE_1 = 2017-04-20T20:44:28.45    152.4214
ANGLE_2 = 2017-04-20T20:44:28.45     37.6844
ANGLE_1 = 2017-04-20T20:44:28.55    152.4125
ANGLE_2 = 2017-04-20T20:44:28.55     37.7141
ANGLE_1 = 2017-04-20T20:44:28.65    152.4036
ANGLE_2 = 2017-04-20T20:44:28.65     37.7436
ANGLE_1 = 2017-04-20T20:44:28.75    152.3941
ANGLE_2 = 2017-04-20T20:44:28.75     37.7727
ANGLE_1 = 2017-04-20T20:44:28.85    152.3843
ANGLE_2 = 2017-04-20T20:44:28.85     37.8017
ANGLE_1 = 2017-04-20T20:44:28.95    152.3747
ANGLE_2 = 2017-04-20T20:44:28.95     37.8307
ANGLE_1 = 2017-04-20T20:44:29.05    152.3654
ANGLE_2 = 2017-04-20T20:44:29.05     37.8599
ANGLE_1 = 2017-04-20T20:44:29.15    152.3559
ANGLE_2 = 2017-04-20T20:44:29.15     37.8889
ANGLE_1 = 2017-04-20T20:44:29.25    152.3463
ANGLE_2 = 2017-04-20T20:44:29.25     37.9181
ANGLE_1 = 2017-04-20T20:44:29.35    152.3368
ANGLE_2 = 2017-04-20T20:44:29.35     37.9476
ANGLE_1 = 2017-04-20T20:44:29.45    152.3271
ANGLE_2 = 2017-04-20T20:44:29.45     37.9769
ANGLE_1 = 2017-04-20T20:44:29.55    152.3176
ANGLE_2 = 2017-04-20T20:44:29.55     38.0065
ANGLE_1 = 2017-04-20T20:44:29.65    152.3079
ANGLE_2 = 2017-04-20T20:44:29.65     38.0359
ANGLE_1 = 2017-04-20T20:44:29.75    152.2983
ANGLE_2 = 2017-04-20T20:44:29.75     38.0656
ANGLE_1 = 2017-04-20T20:44:29.85    152.2887
ANGLE_2 = 2017-04-20T20:44:29.85     38.0953
ANGLE_1 = 2017-04-20T20:44:29.95    152.2791
ANGLE_2 = 2017-04-20T20:44:29.95     38.1251
ANGLE_1 = 2017-04-20T20:44:30.05    152.2693
ANGLE_2 = 2017-04-20T20:44:30.05     38.1549
ANGLE_1 = 2017-04-20T20:44:30.15    152.2596
ANGLE_2 = 2017-04-20T20:44:30.15     38.1850
ANGLE_1 = 2017-04-20T20:44:30.25    152.2499
ANGLE_2 = 2017-04-20T20:44:30.25     38.2150
ANGLE_1 = 2017-04-20T20:44:30.35    152.2401
ANGLE_2 = 2017-04-20T20:44:30.35     38.2449
ANGLE_1 = 2017-04-20T20:44:30.45    152.2304
ANGLE_2 = 2017-04-20T20:44:30.45     38.2746
ANGLE_1 = 2017-04-20T20:44:30.55    152.2206
ANGLE_2 = 2017-04-20T20:44:30.55     38.3039
ANGLE_1 = 2017-04-20T20:44:30.65    152.2108
ANGLE_2 = 2017-04-20T20:44:30.65     38.3336
ANGLE_1 = 2017-04-20T20:44:30.75    152.2009
ANGLE_2 = 2017-04-20T20:44:30.75     38.3631
ANGLE_1 = 2017-04-20T20:44:30.85    152.1912
ANGLE_2 = 2017-04-20T20:44:30.85     38.3924
ANGLE_1 = 2017-04-20T20:44:30.95    152.1814
ANGLE_2 = 2017-04-20T20:44:30.95     38.4221
ANGLE_1 = 2017-04-20T20:44:31.05    152.1714
ANGLE_2 = 2017-04-20T20:44:31.05     38.4521
ANGLE_1 = 2017-04-20T20:44:31.15    152.1615
ANGLE_2 = 2017-04-20T20:44:31.15     38.4819
ANGLE_1 = 2017-04-20T20:44:31.25    152.1515
ANGLE_2 = 2017-04-20T20:44:31.25     38.5120
ANGLE_1 = 2017-04-20T20:44:31.35    152.1416
ANGLE_2 = 2017-04-20T20:44:31.35     38.5420
ANGLE_1 = 2017-04-20T20:44:31.45    152.1317
ANGLE_2 = 2017-04-20T20:44:31.45     38.5720
ANGLE_1 = 2017-04-20T20:44:31.55    152.1218
ANGLE_2 = 2017-04-20T20:44:31.55     38.6022
ANGLE_1 = 2017-04-20T20:44:31.65    152.1117
ANGLE_2 = 2017-04-20T20:44:31.65     38.6323
ANGLE_1 = 2017-04-20T20:44:31.75    152.1017
ANGLE_2 = 2017-04-20T20:44:31.75     38.6627
ANGLE_1 = 2017-04-20T20:44:31.85    152.0917
ANGLE_2 = 2017-04-20T20:44:31.85     38.6934
ANGLE_1 = 2017-04-20T20:44:31.95    152.0817
ANGLE_2 = 2017-04-20T20:44:31.95     38.7238
ANGLE_1 = 2017-04-20T20:44:32.05    152.0716
ANGLE_2 = 2017-04-20T20:44:32.05     38.7541
ANGLE_1 = 2017-04-20T20:44:32.15    152.0615
ANGLE_2 = 2017-04-20T20:44:32.15     38.7843
ANGLE_1 = 2017-04-20T20:44:32.25    152.0514
ANGLE_2 = 2017-04-20T20:44:32.25     38.8140
ANGLE_1 = 2017-04-20T20:44:32.35    152.0413
ANGLE_2 = 2017-04-20T20:44:32.35     38.8438
ANGLE_1 = 2017-04-20T20:44:32.45    152.0311
ANGLE_2 = 2017-04-20T20:44:32.45     38.8738
ANGLE_1 = 2017-04-20T20:44:32.55    152.0209
ANGLE_2 = 2017-04-20T20:44:32.55     38.9038
ANGLE_1 = 2017-04-20T20:44:32.65    152.0107
ANGLE_2 = 2017-04-20T20:44:32.65     38.9339
ANGLE_1 = 2017-04-20T20:44:32.75    152.0005
ANGLE_2 = 2017-04-20T20:44:32.75     38.9644
ANGLE_1 = 2017-04-20T20:44:32.85    151.9903
ANGLE_2 = 2017-04-20T20:44:32.85     38.9948
ANGLE_1 = 2017-04-20T20:44:32.95    151.9806
ANGLE_2 = 2017-04-20T20:44:32.95     39.0253
ANGLE_1 = 2017-04-20T20:44:33.05    151.9708
ANGLE_2 = 2017-04-20T20:44:33.05     39.0557
ANGLE_1 = 2017-04-20T20:44:33.15    151.9604
ANGLE_2 = 2017-04-20T20:44:33.15     39.0861
ANGLE_1 = 2017-04-20T20:44:33.25    151.9498
ANGLE_2 = 2017-04-20T20:44:33.25     39.1169
ANGLE_1 = 2017-04-20T20:44:33.35    151.9394
ANGLE_2 = 2017-04-20T20:44:33.35     39.1476
ANGLE_1 = 2017-04-20T20:44:33.45    151.9292
ANGLE_2 = 2017-04-20T20:44:33.45     39.1786
ANGLE_1 = 2017-04-20T20:44:33.55    151.9190
ANGLE_2 = 2017-04-20T20:44:33.55     39.2096
ANGLE_1 = 2017-04-20T20:44:33.65    151.9086
ANGLE_2 = 2017-04-20T20:44:33.65     39.2403
ANGLE_1 = 2017-04-20T20:44:33.75    151.8981
ANGLE_2 = 2017-04-20T20:44:33.75     39.2710
ANGLE_1 = 2017-04-20T20:44:33.85    151.8876
ANGLE_2 = 2017-04-20T20:44:33.85     39.3014
ANGLE_1 = 2017-04-20T20:44:33.95    151.8772
ANGLE_2 = 2017-04-20T20:44:33.95     39.3318
ANGLE_1 = 2017-04-20T20:44:34.05    151.8667
ANGLE_2 = 2017-04-20T20:44:34.05     39.3621
ANGLE_1 = 2017-04-20T20:44:34.15    151.8563
ANGLE_2 = 2017-04-20T20:44:34.15     39.3923
ANGLE_1 = 2017-04-20T20:44:34.25    151.8458
ANGLE_2 = 2017-04-20T20:44:34.25     39.4229
ANGLE_1 = 2017-04-20T20:44:34.35    151.8352
ANGLE_2 = 2017-04-20T20:44:34.35     39.4538
ANGLE_1 = 2017-04-20T20:44:34.45    151.8247
ANGLE_2 = 2017-04-20T20:44:34.45     39.4846
ANGLE_1 = 2017-04-20T20:44:34.55    151.8141
ANGLE_2 = 2017-04-20T20:44:34.55     39.5156
ANGLE_1 = 2017-04-20T20:44:34.65    151.8035
ANGLE_2 = 2017-04-20T20:44:34.65     39.5465
ANGLE_1 = 2017-04-20T20:44:34.75    151.7929
ANGLE_2 = 2017-04-20T20:44:34.75     39.5773
ANGLE_1 = 2017-04-20T20:44:34.85    151.7822
ANGLE_2 = 2017-04-20T20:44:34.85     39.6085
ANGLE_1 = 2017-04-20T20:44:34.95    151.7716
ANGLE_2 = 2017-04-20T20:44:34.95     39.6394
ANGLE_1 = 2017-04-20T20:44:35.05    151.7609
ANGLE_2 = 2017-04-20T20:44:35.05     39.6708
ANGLE_1 = 2017-04-20T20:44:35.15    151.7502
ANGLE_2 = 2017-04-20T20:44:35.15     39.7024
ANGLE_1 = 2017-04-20T20:44:35.25    151.7395
ANGLE_2 = 2017-04-20T20:44:35.25     39.7337
ANGLE_1 = 2017-04-20T20:44:35.35    151.7287
ANGLE_2 = 2017-04-20T20:44:35.35     39.7648
ANGLE_1 = 2017-04-20T20:44:35.45    151.7184
ANGLE_2 = 2017-04-20T20:44:35.45     39.7957
ANGLE_1 = 2017-04-20T20:44:35.55    151.7081
ANGLE_2 = 2017-04-20T20:44:35.55     39.8266
ANGLE_1 = 2017-04-20T20:44:35.65    151.6973
ANGLE_2 = 2017-04-20T20:44:35.65     39.8571
ANGLE_1 = 2017-04-20T20:44:35.75    151.6861
ANGLE_2 = 2017-04-20T20:44:35.75     39.8882
ANGLE_1 = 2017-04-20T20:44:35.85    151.6752
ANGLE_2 = 2017-04-20T20:44:35.85     39.9190
ANGLE_1 = 2017-04-20T20:44:35.95    151.6645
ANGLE_2 = 2017-04-20T20:44:35.95     39.9503
ANGLE_1 = 2017-04-20T20:44:36.05    151.6538
ANGLE_2 = 2017-04-20T20:44:36.05     39.9814
ANGLE_1 = 2017-04-20T20:44:36.15    151.6428
ANGLE_2 = 2017-04-20T20:44:36.15     40.0127
ANGLE_1 = 2017-04-20T20:44:36.25    151.6317
ANGLE_2 = 2017-04-20T20:44:36.25     40.0444
ANGLE_1 = 2017-04-20T20:44:36.35    151.6208
ANGLE_2 = 2017-04-20T20:44:36.35     40.0756
ANGLE_1 = 2017-04-20T20:44:36.45    151.6098
ANGLE_2 = 2017-04-20T20:44:36.45     40.1071
ANGLE_1 = 2017-04-20T20:44:36.55    151.5989
ANGLE_2 = 2017-04-20T20:44:36.55     40.1388
ANGLE_1 = 2017-04-20T20:44:36.65    151.5879
ANGLE_2 = 2017-04-20T20:44:36.65     40.1704
ANGLE_1 = 2017-04-20T20:44:36.75    151.5767
ANGLE_2 = 2017-04-20T20:44:36.75     40.2024
ANGLE_1 = 2017-04-20T20:44:36.85    151.5656
ANGLE_2 = 2017-04-20T20:44:36.85     40.2342
ANGLE_1 = 2017-04-20T20:44:36.95    151.5546
ANGLE_2 = 2017-04-20T20:44:36.95     40.2659
ANGLE_1 = 2017-04-20T20:44:37.05    151.5435
ANGLE_2 = 2017-04-20T20:44:37.05     40.2970
ANGLE_1 = 2017-04-20T20:44:37.15    151.5324
ANGLE_2 = 2017-04-20T20:44:37.15     40.3284
ANGLE_1 = 2017-04-20T20:44:37.25    151.5212
ANGLE_2 = 2017-04-20T20:44:37.25     40.3595
ANGLE_1 = 2017-04-20T20:44:37.35    151.5100
ANGLE_2 = 2017-04-20T20:44:37.35     40.3909
ANGLE_1 = 2017-04-20T20:44:37.45    151.4989
ANGLE_2 = 2017-04-20T20:44:37.45     40.4222
ANGLE_1 = 2017-04-20T20:44:37.55    151.4883
ANGLE_2 = 2017-04-20T20:44:37.55     40.4536
ANGLE_1 = 2017-04-20T20:44:37.65    151.4773
ANGLE_2 = 2017-04-20T20:44:37.65     40.4857
ANGLE_1 = 2017-04-20T20:44:37.75    151.4659
ANGLE_2 = 2017-04-20T20:44:37.75     40.5174
ANGLE_1 = 2017-04-20T20:44:37.85    151.4543
ANGLE_2 = 2017-04-20T20:44:37.85     40.5492
ANGLE_1 = 2017-04-20T20:44:37.95    151.4430
ANGLE_2 = 2017-04-20T20:44:37.95     40.5810
ANGLE_1 = 2017-04-20T20:44:38.05    151.4319
ANGLE_2 = 2017-04-20T20:44:38.05     40.6130
ANGLE_1 = 2017-04-20T20:44:38.15    151.4205
ANGLE_2 = 2017-04-20T20:44:38.15     40.6453
ANGLE_1 = 2017-04-20T20:44:38.25    151.4090
ANGLE_2 = 2017-04-20T20:44:38.25     40.6774
ANGLE_1 = 2017-04-20T20:44:38.35    151.3976
ANGLE_2 = 2017-04-20T20:44:38.35     40.7098
ANGLE_1 = 2017-04-20T20:44:38.45    151.3862
ANGLE_2 = 2017-04-20T20:44:38.45     40.7421
ANGLE_1 = 2017-04-20T20:44:38.55    151.3747
ANGLE_2 = 2017-04-20T20:44:38.55     40.7739
ANGLE_1 = 2017-04-20T20:44:38.65    151.3632
ANGLE_2 = 2017-04-20T20:44:38.65     40.8058
ANGLE_1 = 2017-04-20T20:44:38.75    151.3517
ANGLE_2 = 2017-04-20T20:44:38.75     40.8374
ANGLE_1 = 2017-04-20T20:44:38.85    151.3402
ANGLE_2 = 2017-04-20T20:44:38.85     40.8690
ANGLE_1 = 2017-04-20T20:44:38.95    151.3287
ANGLE_2 = 2017-04-20T20:44:38.95     40.9003
ANGLE_1 = 2017-04-20T20:44:39.05    151.3170
ANGLE_2 = 2017-04-20T20:44:39.05     40.9318
ANGLE_1 = 2017-04-20T20:44:39.15    151.3054
ANGLE_2 = 2017-04-20T20:44:39.15     40.9643
ANGLE_1 = 2017-04-20T20:44:39.25    151.2938
ANGLE_2 = 2017-04-20T20:44:39.25     40.9966
ANGLE_1 = 2017-04-20T20:44:39.35    151.2822
ANGLE_2 = 2017-04-20T20:44:39.35     41.0289
ANGLE_1 = 2017-04-20T20:44:39.45    151.2704
ANGLE_2 = 2017-04-20T20:44:39.45     41.0609
ANGLE_1 = 2017-04-20T20:44:39.55    151.2588
ANGLE_2 = 2017-04-20T20:44:39.55     41.0933
ANGLE_1 = 2017-04-20T20:44:39.65    151.2470
ANGLE_2 = 2017-04-20T20:44:39.65     41.1259
ANGLE_1 = 2017-04-20T20:44:39.75    151.2353
ANGLE_2 = 2017-04-20T20:44:39.75     41.1586
ANGLE_1 = 2017-04-20T20:44:39.85    151.2236
ANGLE_2 = 2017-04-20T20:44:39.85     41.1913
ANGLE_1 = 2017-04-20T20:44:39.95    151.2118
ANGLE_2 = 2017-04-20T20:44:39.95     41.2241
ANGLE_1 = 2017-04-20T20:44:40.05    151.1999
ANGLE_2 = 2017-04-20T20:44:40.05     41.2567
ANGLE_1 = 2017-04-20T20:44:40.15    151.1881
ANGLE_2 = 2017-04-20T20:44:40.15     41.2891
ANGLE_1 = 2017-04-20T20:44:40.25    151.1763
ANGLE_2 = 2017-04-20T20:44:40.25     41.3209
ANGLE_1 = 2017-04-20T20:44:40.35    151.1642
ANGLE_2 = 2017-04-20T20:44:40.35     41.3531
ANGLE_1 = 2017-04-20T20:44:40.45    151.1524
ANGLE_2 = 2017-04-20T20:44:40.45     41.3851
ANGLE_1 = 2017-04-20T20:44:40.55    151.1405
ANGLE_2 = 2017-04-20T20:44:40.55     41.4175
ANGLE_1 = 2017-04-20T20:44:40.65    151.1285
ANGLE_2 = 2017-04-20T20:44:40.65     41.4501
ANGLE_1 = 2017-04-20T20:44:40.75    151.1165
ANGLE_2 = 2017-04-20T20:44:40.75     41.4827
ANGLE_1 = 2017-04-20T20:44:40.85    151.1045
ANGLE_2 = 2017-04-20T20:44:40.85     41.5152
ANGLE_1 = 2017-04-20T20:44:40.95    151.0925
ANGLE_2 = 2017-04-20T20:44:40.95     41.5480
ANGLE_1 = 2017-04-20T20:44:41.05    151.0804
ANGLE_2 = 2017-04-20T20:44:41.05     41.5809
ANGLE_1 = 2017-04-20T20:44:41.15    151.0682
ANGLE_2 = 2017-04-20T20:44:41.15     41.6136
ANGLE_1 = 2017-04-20T20:44:41.25    151.0561
ANGLE_2 = 2017-04-20T20:44:41.25     41.6466
ANGLE_1 = 2017-04-20T20:44:41.35    151.0439
ANGLE_2 = 2017-04-20T20:44:41.35     41.6800
ANGLE_1 = 2017-04-20T20:44:41.45    151.0318
ANGLE_2 = 2017-04-20T20:44:41.45     41.7131
ANGLE_1 = 2017-04-20T20:44:41.55    151.0196
ANGLE_2 = 2017-04-20T20:44:41.55     41.7463
ANGLE_1 = 2017-04-20T20:44:41.65    151.0073
ANGLE_2 = 2017-04-20T20:44:41.65     41.7794
ANGLE_1 = 2017-04-20T20:44:41.75    150.9951
ANGLE_2 = 2017-04-20T20:44:41.75     41.8117
ANGLE_1 = 2017-04-20T20:44:41.85    150.9829
ANGLE_2 = 2017-04-20T20:44:41.85     41.8441
ANGLE_1 = 2017-04-20T20:44:41.95    150.9706
ANGLE_2 = 2017-04-20T20:44:41.95     41.8767
ANGLE_1 = 2017-04-20T20:44:42.05    150.9582
ANGLE_2 = 2017-04-20T20:44:42.05     41.9094
ANGLE_1 = 2017-04-20T20:44:42.15    150.9458
ANGLE_2 = 2017-04-20T20:44:42.15     41.9422
ANGLE_1 = 2017-04-20T20:44:42.25    150.9335
ANGLE_2 = 2017-04-20T20:44:42.25     41.9752
ANGLE_1 = 2017-04-20T20:44:42.35    150.9211
ANGLE_2 = 2017-04-20T20:44:42.35     42.0085
ANGLE_1 = 2017-04-20T20:44:42.45    150.9086
ANGLE_2 = 2017-04-20T20:44:42.45     42.0418
ANGLE_1 = 2017-04-20T20:44:42.55    150.8961
ANGLE_2 = 2017-04-20T20:44:42.55     42.0749
ANGLE_1 = 2017-04-20T20:44:42.65    150.8837
ANGLE_2 = 2017-04-20T20:44:42.65     42.1082
ANGLE_1 = 2017-04-20T20:44:42.75    150.8712
ANGLE_2 = 2017-04-20T20:44:42.75     42.1416
ANGLE_1 = 2017-04-20T20:44:42.85    150.8586
ANGLE_2 = 2017-04-20T20:44:42.85     42.1753
ANGLE_1 = 2017-04-20T20:44:42.95    150.8460
ANGLE_2 = 2017-04-20T20:44:42.95     42.2091
ANGLE_1 = 2017-04-20T20:44:43.05    150.8335
ANGLE_2 = 2017-04-20T20:44:43.05     42.2427
ANGLE_1 = 2017-04-20T20:44:43.15    150.8209
ANGLE_2 = 2017-04-20T20:44:43.15     42.2759
ANGLE_1 = 2017-04-20T20:44:43.25    150.8082
ANGLE_2 = 2017-04-20T20:44:43.25     42.3089
ANGLE_1 = 2017-04-20T20:44:43.35    150.7955
ANGLE_2 = 2017-04-20T20:44:43.35     42.3420
ANGLE_1 = 2017-04-20T20:44:43.45    150.7829
ANGLE_2 = 2017-04-20T20:44:43.45     42.3748
ANGLE_1 = 2017-04-20T20:44:43.55    150.7701
ANGLE_2 = 2017-04-20T20:44:43.55     42.4078
ANGLE_1 = 2017-04-20T20:44:43.65    150.7573
ANGLE_2 = 2017-04-20T20:44:43.65     42.4413
ANGLE_1 = 2017-04-20T20:44:43.75    150.7445
ANGLE_2 = 2017-04-20T20:44:43.75     42.4747
ANGLE_1 = 2017-04-20T20:44:43.85    150.7317
ANGLE_2 = 2017-04-20T20:44:43.85     42.5083
ANGLE_1 = 2017-04-20T20:44:43.95    150.7189
ANGLE_2 = 2017-04-20T20:44:43.95     42.5421
ANGLE_1 = 2017-04-20T20:44:44.05    150.7060
ANGLE_2 = 2017-04-20T20:44:44.05     42.5756
ANGLE_1 = 2017-04-20T20:44:44.15    150.6932
ANGLE_2 = 2017-04-20T20:44:44.15     42.6091
ANGLE_1 = 2017-04-20T20:44:44.25    150.6802
ANGLE_2 = 2017-04-20T20:44:44.25     42.6434
ANGLE_1 = 2017-04-20T20:44:44.35    150.6672
ANGLE_2 = 2017-04-20T20:44:44.35     42.6775
ANGLE_1 = 2017-04-20T20:44:44.45    150.6542
ANGLE_2 = 2017-04-20T20:44:44.45     42.7112
ANGLE_1 = 2017-04-20T20:44:44.55    150.6412
ANGLE_2 = 2017-04-20T20:44:44.55     42.7448
ANGLE_1 = 2017-04-20T20:44:44.65    150.6282
ANGLE_2 = 2017-04-20T20:44:44.65     42.7789
ANGLE_1 = 2017-04-20T20:44:44.75    150.6151
ANGLE_2 = 2017-04-20T20:44:44.75     42.8124
ANGLE_1 = 2017-04-20T20:44:44.85    150.6020
ANGLE_2 = 2017-04-20T20:44:44.85     42.8458
ANGLE_1 = 2017-04-20T20:44:44.95    150.5890
ANGLE_2 = 2017-04-20T20:44:44.95     42.8790
ANGLE_1 = 2017-04-20T20:44:45.05    150.5758
ANGLE_2 = 2017-04-20T20:44:45.05     42.9126
ANGLE_1 = 2017-04-20T20:44:45.15    150.5625
ANGLE_2 = 2017-04-20T20:44:45.15     42.9465
ANGLE_1 = 2017-04-20T20:44:45.25    150.5493
ANGLE_2 = 2017-04-20T20:44:45.25     42.9805
ANGLE_1 = 2017-04-20T20:44:45.35    150.5361
ANGLE_2 = 2017-04-20T20:44:45.35     43.0145
ANGLE_1 = 2017-04-20T20:44:45.45    150.5229
ANGLE_2 = 2017-04-20T20:44:45.45     43.0488
ANGLE_1 = 2017-04-20T20:44:45.55    150.5095
ANGLE_2 = 2017-04-20T20:44:45.55     43.0826
ANGLE_1 = 2017-04-20T20:44:45.65    150.4962
ANGLE_2 = 2017-04-20T20:44:45.65     43.1170
ANGLE_1 = 2017-04-20T20:44:45.75    150.4829
ANGLE_2 = 2017-04-20T20:44:45.75     43.1512
ANGLE_1 = 2017-04-20T20:44:45.85    150.4701
ANGLE_2 = 2017-04-20T20:44:45.85     43.1859
ANGLE_1 = 2017-04-20T20:44:45.95    150.4572
ANGLE_2 = 2017-04-20T20:44:45.95     43.2204
ANGLE_1 = 2017-04-20T20:44:46.05    150.4436
ANGLE_2 = 2017-04-20T20:44:46.05     43.2551
ANGLE_1 = 2017-04-20T20:44:46.15    150.4299
ANGLE_2 = 2017-04-20T20:44:46.15     43.2892
ANGLE_1 = 2017-04-20T20:44:46.25    150.4162
ANGLE_2 = 2017-04-20T20:44:46.25     43.3228
ANGLE_1 = 2017-04-20T20:44:46.35    150.4029
ANGLE_2 = 2017-04-20T20:44:46.35     43.3568
ANGLE_1 = 2017-04-20T20:44:46.45    150.3894
ANGLE_2 = 2017-04-20T20:44:46.45     43.3907
ANGLE_1 = 2017-04-20T20:44:46.55    150.3758
ANGLE_2 = 2017-04-20T20:44:46.55     43.4248
ANGLE_1 = 2017-04-20T20:44:46.65    150.3620
ANGLE_2 = 2017-04-20T20:44:46.65     43.4592
ANGLE_1 = 2017-04-20T20:44:46.75    150.3485
ANGLE_2 = 2017-04-20T20:44:46.75     43.4936
ANGLE_1 = 2017-04-20T20:44:46.85    150.3348
ANGLE_2 = 2017-04-20T20:44:46.85     43.5280
ANGLE_1 = 2017-04-20T20:44:46.95    150.3210
ANGLE_2 = 2017-04-20T20:44:46.95     43.5626
ANGLE_1 = 2017-04-20T20:44:47.05    150.3074
ANGLE_2 = 2017-04-20T20:44:47.05     43.5970
ANGLE_1 = 2017-04-20T20:44:47.15    150.2935
ANGLE_2 = 2017-04-20T20:44:47.15     43.6320
ANGLE_1 = 2017-04-20T20:44:47.25    150.2797
ANGLE_2 = 2017-04-20T20:44:47.25     43.6667
ANGLE_1 = 2017-04-20T20:44:47.36    150.2659
ANGLE_2 = 2017-04-20T20:44:47.36     43.7019
ANGLE_1 = 2017-04-20T20:44:47.46    150.2521
ANGLE_2 = 2017-04-20T20:44:47.46     43.7368
ANGLE_1 = 2017-04-20T20:44:47.56    150.2382
ANGLE_2 = 2017-04-20T20:44:47.56     43.7719
ANGLE_1 = 2017-04-20T20:44:47.66    150.2242
ANGLE_2 = 2017-04-20T20:44:47.66     43.8062
ANGLE_1 = 2017-04-20T20:44:47.76    150.2102
ANGLE_2 = 2017-04-20T20:44:47.76     43.8402
ANGLE_1 = 2017-04-20T20:44:47.86    150.1962
ANGLE_2 = 2017-04-20T20:44:47.86     43.8746
ANGLE_1 = 2017-04-20T20:44:47.96    150.1822
ANGLE_2 = 2017-04-20T20:44:47.96     43.9090
ANGLE_1 = 2017-04-20T20:44:48.06    150.1681
ANGLE_2 = 2017-04-20T20:44:48.06     43.9435
ANGLE_1 = 2017-04-20T20:44:48.16    150.1540
ANGLE_2 = 2017-04-20T20:44:48.16     43.9786
ANGLE_1 = 2017-04-20T20:44:48.26    150.1399
ANGLE_2 = 2017-04-20T20:44:48.26     44.0136
ANGLE_1 = 2017-04-20T20:44:48.36    150.1262
ANGLE_2 = 2017-04-20T20:44:48.36     44.0484
ANGLE_1 = 2017-04-20T20:44:48.46    150.1126
ANGLE_2 = 2017-04-20T20:44:48.46     44.0835
ANGLE_1 = 2017-04-20T20:44:48.56    150.0984
ANGLE_2 = 2017-04-20T20:44:48.56     44.1184
ANGLE_1 = 2017-04-20T20:44:48.66    150.0838
ANGLE_2 = 2017-04-20T20:44:48.66     44.1538
ANGLE_1 = 2017-04-20T20:44:48.76    150.0695
ANGLE_2 = 2017-04-20T20:44:48.76     44.1893
ANGLE_1 = 2017-04-20T20:44:48.86    150.0553
ANGLE_2 = 2017-04-20T20:44:48.86     44.2248
ANGLE_1 = 2017-04-20T20:44:48.96    150.0411
ANGLE_2 = 2017-04-20T20:44:48.96     44.2602
ANGLE_1 = 2017-04-20T20:44:49.06    150.0266
ANGLE_2 = 2017-04-20T20:44:49.06     44.2953
ANGLE_1 = 2017-04-20T20:44:49.16    150.0122
ANGLE_2 = 2017-04-20T20:44:49.16     44.3298
ANGLE_1 = 2017-04-20T20:44:49.26    149.9978
ANGLE_2 = 2017-04-20T20:44:49.26     44.3645
ANGLE_1 = 2017-04-20T20:44:49.36    149.9832
ANGLE_2 = 2017-04-20T20:44:49.36     44.3992
ANGLE_1 = 2017-04-20T20:44:49.46    149.9687
ANGLE_2 = 2017-04-20T20:44:49.46     44.4341
ANGLE_1 = 2017-04-20T20:44:49.56    149.9542
ANGLE_2 = 2017-04-20T20:44:49.56     44.4696
ANGLE_1 = 2017-04-20T20:44:49.66    149.9397
ANGLE_2 = 2017-04-20T20:44:49.66     44.5047
ANGLE_1 = 2017-04-20T20:44:49.76    149.9250
ANGLE_2 = 2017-04-20T20:44:49.76     44.5403
ANGLE_1 = 2017-04-20T20:44:49.86    149.9105
ANGLE_2 = 2017-04-20T20:44:49.86     44.5754
ANGLE_1 = 2017-04-20T20:44:49.96    149.8957
ANGLE_2 = 2017-04-20T20:44:49.96     44.6112
ANGLE_1 = 2017-04-20T20:44:50.06    149.8810
ANGLE_2 = 2017-04-20T20:44:50.06     44.6468
ANGLE_1 = 2017-04-20T20:44:50.16    149.8663
ANGLE_2 = 2017-04-20T20:44:50.16     44.6830
ANGLE_1 = 2017-04-20T20:44:50.26    149.8515
ANGLE_2 = 2017-04-20T20:44:50.26     44.7190
ANGLE_1 = 2017-04-20T20:44:50.36    149.8367
ANGLE_2 = 2017-04-20T20:44:50.36     44.7547
ANGLE_1 = 2017-04-20T20:44:50.46    149.8219
ANGLE_2 = 2017-04-20T20:44:50.46     44.7901
ANGLE_1 = 2017-04-20T20:44:50.56    149.8070
ANGLE_2 = 2017-04-20T20:44:50.56     44.8253
ANGLE_1 = 2017-04-20T20:44:50.66    149.7920
ANGLE_2 = 2017-04-20T20:44:50.66     44.8604
ANGLE_1 = 2017-04-20T20:44:50.76    149.7771
ANGLE_2 = 2017-04-20T20:44:50.76     44.8955
ANGLE_1 = 2017-04-20T20:44:50.86    149.7621
ANGLE_2 = 2017-04-20T20:44:50.86     44.9312
ANGLE_1 = 2017-04-20T20:44:50.96    149.7472
ANGLE_2 = 2017-04-20T20:44:50.96     44.9668
ANGLE_1 = 2017-04-20T20:44:51.06    149.7321
ANGLE_2 = 2017-04-20T20:44:51.06     45.0024
ANGLE_1 = 2017-04-20T20:44:51.16    149.7176
ANGLE_2 = 2017-04-20T20:44:51.16     45.0385
ANGLE_1 = 2017-04-20T20:44:51.26    149.7030
ANGLE_2 = 2017-04-20T20:44:51.26     45.0740
ANGLE_1 = 2017-04-20T20:44:51.36    149.6876
ANGLE_2 = 2017-04-20T20:44:51.36     45.1100
ANGLE_1 = 2017-04-20T20:44:51.46    149.6721
ANGLE_2 = 2017-04-20T20:44:51.46     45.1465
ANGLE_1 = 2017-04-20T20:44:51.56    149.6570
ANGLE_2 = 2017-04-20T20:44:51.56     45.1827
ANGLE_1 = 2017-04-20T20:44:51.66    149.6418
ANGLE_2 = 2017-04-20T20:44:51.66     45.2192
ANGLE_1 = 2017-04-20T20:44:51.76    149.6265
ANGLE_2 = 2017-04-20T20:44:51.76     45.2557
ANGLE_1 = 2017-04-20T20:44:51.86    149.6111
ANGLE_2 = 2017-04-20T20:44:51.86     45.2915
ANGLE_1 = 2017-04-20T20:44:51.96    149.5956
ANGLE_2 = 2017-04-20T20:44:51.96     45.3268
ANGLE_1 = 2017-04-20T20:44:52.06    149.5804
ANGLE_2 = 2017-04-20T20:44:52.06     45.3625
ANGLE_1 = 2017-04-20T20:44:52.16    149.5650
ANGLE_2 = 2017-04-20T20:44:52.16     45.3980
ANGLE_1 = 2017-04-20T20:44:52.26    149.5494
ANGLE_2 = 2017-04-20T20:44:52.26     45.4338
ANGLE_1 = 2017-04-20T20:44:52.36    149.5339
ANGLE_2 = 2017-04-20T20:44:52.36     45.4699
ANGLE_1 = 2017-04-20T20:44:52.46    149.5185
ANGLE_2 = 2017-04-20T20:44:52.46     45.5062
ANGLE_1 = 2017-04-20T20:44:52.56    149.5027
ANGLE_2 = 2017-04-20T20:44:52.56     45.5427
ANGLE_1 = 2017-04-20T20:44:52.66    149.4872
ANGLE_2 = 2017-04-20T20:44:52.66     45.5787
ANGLE_1 = 2017-04-20T20:44:52.76    149.4715
ANGLE_2 = 2017-04-20T20:44:52.76     45.6151
ANGLE_1 = 2017-04-20T20:44:52.86    149.4558
ANGLE_2 = 2017-04-20T20:44:52.86     45.6518
ANGLE_1 = 2017-04-20T20:44:52.96    149.4400
ANGLE_2 = 2017-04-20T20:44:52.96     45.6888
ANGLE_1 = 2017-04-20T20:44:53.06    149.4244
ANGLE_2 = 2017-04-20T20:44:53.06     45.7256
ANGLE_1 = 2017-04-20T20:44:53.16    149.4085
ANGLE_2 = 2017-04-20T20:44:53.16     45.7624
ANGLE_1 = 2017-04-20T20:44:53.26    149.3927
ANGLE_2 = 2017-04-20T20:44:53.26     45.7984
ANGLE_1 = 2017-04-20T20:44:53.36    149.3768
ANGLE_2 = 2017-04-20T20:44:53.36     45.8344
ANGLE_1 = 2017-04-20T20:44:53.46    149.3614
ANGLE_2 = 2017-04-20T20:44:53.46     45.8705
ANGLE_1 = 2017-04-20T20:44:53.56    149.3459
ANGLE_2 = 2017-04-20T20:44:53.56     45.9065
ANGLE_1 = 2017-04-20T20:44:53.66    149.3298
ANGLE_2 = 2017-04-20T20:44:53.66     45.9429
ANGLE_1 = 2017-04-20T20:44:53.76    149.3134
ANGLE_2 = 2017-04-20T20:44:53.76     45.9795
ANGLE_1 = 2017-04-20T20:44:53.86    149.2975
ANGLE_2 = 2017-04-20T20:44:53.86     46.0161
ANGLE_1 = 2017-04-20T20:44:53.96    149.2814
ANGLE_2 = 2017-04-20T20:44:53.96     46.0531
ANGLE_1 = 2017-04-20T20:44:54.06    149.2652
ANGLE_2 = 2017-04-20T20:44:54.06     46.0897
ANGLE_1 = 2017-04-20T20:44:54.16    149.2491
ANGLE_2 = 2017-04-20T20:44:54.16     46.1267
ANGLE_1 = 2017-04-20T20:44:54.26    149.2329
ANGLE_2 = 2017-04-20T20:44:54.26     46.1638
ANGLE_1 = 2017-04-20T20:44:54.36    149.2165
ANGLE_2 = 2017-04-20T20:44:54.36     46.2011
ANGLE_1 = 2017-04-20T20:44:54.46    149.2003
ANGLE_2 = 2017-04-20T20:44:54.46     46.2386
ANGLE_1 = 2017-04-20T20:44:54.56    149.1839
ANGLE_2 = 2017-04-20T20:44:54.56     46.2753
ANGLE_1 = 2017-04-20T20:44:54.66    149.1675
ANGLE_2 = 2017-04-20T20:44:54.66     46.3118
ANGLE_1 = 2017-04-20T20:44:54.76    149.1511
ANGLE_2 = 2017-04-20T20:44:54.76     46.3480
ANGLE_1 = 2017-04-20T20:44:54.86    149.1346
ANGLE_2 = 2017-04-20T20:44:54.86     46.3846
ANGLE_1 = 2017-04-20T20:44:54.96    149.1181
ANGLE_2 = 2017-04-20T20:44:54.96     46.4213
ANGLE_1 = 2017-04-20T20:44:55.06    149.1016
ANGLE_2 = 2017-04-20T20:44:55.06     46.4582
ANGLE_1 = 2017-04-20T20:44:55.16    149.0850
ANGLE_2 = 2017-04-20T20:44:55.16     46.4953
ANGLE_1 = 2017-04-20T20:44:55.26    149.0683
ANGLE_2 = 2017-04-20T20:44:55.26     46.5326
ANGLE_1 = 2017-04-20T20:44:55.36    149.0517
ANGLE_2 = 2017-04-20T20:44:55.36     46.5695
ANGLE_1 = 2017-04-20T20:44:55.46    149.0351
ANGLE_2 = 2017-04-20T20:44:55.46     46.6068
ANGLE_1 = 2017-04-20T20:44:55.56    149.0190
ANGLE_2 = 2017-04-20T20:44:55.56     46.6442
ANGLE_1 = 2017-04-20T20:44:55.66    149.0025
ANGLE_2 = 2017-04-20T20:44:55.66     46.6820
ANGLE_1 = 2017-04-20T20:44:55.76    148.9856
ANGLE_2 = 2017-04-20T20:44:55.76     46.7198
ANGLE_1 = 2017-04-20T20:44:55.86    148.9684
ANGLE_2 = 2017-04-20T20:44:55.86     46.7575
ANGLE_1 = 2017-04-20T20:44:55.96    148.9515
ANGLE_2 = 2017-04-20T20:44:55.96     46.7947
ANGLE_1 = 2017-04-20T20:44:56.06    148.9348
ANGLE_2 = 2017-04-20T20:44:56.06     46.8312
ANGLE_1 = 2017-04-20T20:44:56.16    148.9177
ANGLE_2 = 2017-04-20T20:44:56.16     46.8681
ANGLE_1 = 2017-04-20T20:44:56.26    148.9006
ANGLE_2 = 2017-04-20T20:44:56.26     46.9048
ANGLE_1 = 2017-04-20T20:44:56.36    148.8835
ANGLE_2 = 2017-04-20T20:44:56.36     46.9422
ANGLE_1 = 2017-04-20T20:44:56.46    148.8664
ANGLE_2 = 2017-04-20T20:44:56.46     46.9799
ANGLE_1 = 2017-04-20T20:44:56.56    148.8492
ANGLE_2 = 2017-04-20T20:44:56.56     47.0173
ANGLE_1 = 2017-04-20T20:44:56.66    148.8320
ANGLE_2 = 2017-04-20T20:44:56.66     47.0550
ANGLE_1 = 2017-04-20T20:44:56.76    148.8147
ANGLE_2 = 2017-04-20T20:44:56.76     47.0926
ANGLE_1 = 2017-04-20T20:44:56.86    148.7975
ANGLE_2 = 2017-04-20T20:44:56.86     47.1302
ANGLE_1 = 2017-04-20T20:44:56.96    148.7801
ANGLE_2 = 2017-04-20T20:44:56.96     47.1685
ANGLE_1 = 2017-04-20T20:44:57.06    148.7627
ANGLE_2 = 2017-04-20T20:44:57.06     47.2069
ANGLE_1 = 2017-04-20T20:44:57.16    148.7454
ANGLE_2 = 2017-04-20T20:44:57.16     47.2445
ANGLE_1 = 2017-04-20T20:44:57.26    148.7279
ANGLE_2 = 2017-04-20T20:44:57.26     47.2818
ANGLE_1 = 2017-04-20T20:44:57.36    148.7104
ANGLE_2 = 2017-04-20T20:44:57.36     47.3192
ANGLE_1 = 2017-04-20T20:44:57.46    148.6929
ANGLE_2 = 2017-04-20T20:44:57.46     47.3563
ANGLE_1 = 2017-04-20T20:44:57.56    148.6753
ANGLE_2 = 2017-04-20T20:44:57.56     47.3938
ANGLE_1 = 2017-04-20T20:44:57.66    148.6576
ANGLE_2 = 2017-04-20T20:44:57.66     47.4312
ANGLE_1 = 2017-04-20T20:44:57.76    148.6400
ANGLE_2 = 2017-04-20T20:44:57.76     47.4691
ANGLE_1 = 2017-04-20T20:44:57.86    148.6222
ANGLE_2 = 2017-04-20T20:44:57.86     47.5071
ANGLE_1 = 2017-04-20T20:44:57.96    148.6045
ANGLE_2 = 2017-04-20T20:44:57.96     47.5452
ANGLE_1 = 2017-04-20T20:44:58.06    148.5865
ANGLE_2 = 2017-04-20T20:44:58.06     47.5833
ANGLE_1 = 2017-04-20T20:44:58.16    148.5687
ANGLE_2 = 2017-04-20T20:44:58.16     47.6213
ANGLE_1 = 2017-04-20T20:44:58.26    148.5508
ANGLE_2 = 2017-04-20T20:44:58.26     47.6600
ANGLE_1 = 2017-04-20T20:44:58.36    148.5329
ANGLE_2 = 2017-04-20T20:44:58.36     47.6986
ANGLE_1 = 2017-04-20T20:44:58.46    148.5151
ANGLE_2 = 2017-04-20T20:44:58.46     47.7372
ANGLE_1 = 2017-04-20T20:44:58.56    148.4976
ANGLE_2 = 2017-04-20T20:44:58.56     47.7755
ANGLE_1 = 2017-04-20T20:44:58.66    148.4799
ANGLE_2 = 2017-04-20T20:44:58.66     47.8132
ANGLE_1 = 2017-04-20T20:44:58.76    148.4616
ANGLE_2 = 2017-04-20T20:44:58.76     47.8508
ANGLE_1 = 2017-04-20T20:44:58.86    148.4431
ANGLE_2 = 2017-04-20T20:44:58.86     47.8884
ANGLE_1 = 2017-04-20T20:44:58.96    148.4249
ANGLE_2 = 2017-04-20T20:44:58.96     47.9262
ANGLE_1 = 2017-04-20T20:44:59.06    148.4068
ANGLE_2 = 2017-04-20T20:44:59.06     47.9645
ANGLE_1 = 2017-04-20T20:44:59.16    148.3885
ANGLE_2 = 2017-04-20T20:44:59.16     48.0030
ANGLE_1 = 2017-04-20T20:44:59.26    148.3702
ANGLE_2 = 2017-04-20T20:44:59.26     48.0414
ANGLE_1 = 2017-04-20T20:44:59.36    148.3517
ANGLE_2 = 2017-04-20T20:44:59.36     48.0798
ANGLE_1 = 2017-04-20T20:44:59.46    148.3332
ANGLE_2 = 2017-04-20T20:44:59.46     48.1184
ANGLE_1 = 2017-04-20T20:44:59.56    148.3147
ANGLE_2 = 2017-04-20T20:44:59.56     48.1573
ANGLE_1 = 2017-04-20T20:44:59.66    148.2963
ANGLE_2 = 2017-04-20T20:44:59.66     48.1962
ANGLE_1 = 2017-04-20T20:44:59.76    148.2776
ANGLE_2 = 2017-04-20T20:44:59.76     48.2353
ANGLE_1 = 2017-04-20T20:44:59.86    148.2590
ANGLE_2 = 2017-04-20T20:44:59.86     48.2741
ANGLE_1 = 2017-04-20T20:44:59.96    148.2402
ANGLE_2 = 2017-04-20T20:44:59.96     48.3125
ANGLE_1 = 2017-04-20T20:45:00.06    148.2216
ANGLE_2 = 2017-04-20T20:45:00.06     48.3503
ANGLE_1 = 2017-04-20T20:45:00.16    148.2028
ANGLE_2 = 2017-04-20T20:45:00.16     48.3883
ANGLE_1 = 2017-04-20T20:45:00.26    148.1839
ANGLE_2 = 2017-04-20T20:45:00.26     48.4266
ANGLE_1 = 2017-04-20T20:45:00.36    148.1650
ANGLE_2 = 2017-04-20T20:45:00.36     48.4653
ANGLE_1 = 2017-04-20T20:45:00.46    148.1460
ANGLE_2 = 2017-04-20T20:45:00.46     48.5042
ANGLE_1 = 2017-04-20T20:45:00.56    148.1272
ANGLE_2 = 2017-04-20T20:45:00.56     48.5432
ANGLE_1 = 2017-04-20T20:45:00.66    148.1090
ANGLE_2 = 2017-04-20T20:45:00.66     48.5821
ANGLE_1 = 2017-04-20T20:45:00.76    148.0903
ANGLE_2 = 2017-04-20T20:45:00.76     48.6207
ANGLE_1 = 2017-04-20T20:45:00.86    148.0709
ANGLE_2 = 2017-04-20T20:45:00.86     48.6602
ANGLE_1 = 2017-04-20T20:45:00.96    148.0514
ANGLE_2 = 2017-04-20T20:45:00.96     48.6998
ANGLE_1 = 2017-04-20T20:45:01.06    148.0323
ANGLE_2 = 2017-04-20T20:45:01.06     48.7393
ANGLE_1 = 2017-04-20T20:45:01.16    148.0129
ANGLE_2 = 2017-04-20T20:45:01.16     48.7784
ANGLE_1 = 2017-04-20T20:45:01.26    147.9936
ANGLE_2 = 2017-04-20T20:45:01.26     48.8171
ANGLE_1 = 2017-04-20T20:45:01.36    147.9744
ANGLE_2 = 2017-04-20T20:45:01.36     48.8555
ANGLE_1 = 2017-04-20T20:45:01.46    147.9548
ANGLE_2 = 2017-04-20T20:45:01.46     48.8938
ANGLE_1 = 2017-04-20T20:45:01.56    147.9354
ANGLE_2 = 2017-04-20T20:45:01.56     48.9327
ANGLE_1 = 2017-04-20T20:45:01.66    147.9159
ANGLE_2 = 2017-04-20T20:45:01.66     48.9719
ANGLE_1 = 2017-04-20T20:45:01.76    147.8963
ANGLE_2 = 2017-04-20T20:45:01.76     49.0109
ANGLE_1 = 2017-04-20T20:45:01.86    147.8766
ANGLE_2 = 2017-04-20T20:45:01.86     49.0505
ANGLE_1 = 2017-04-20T20:45:01.96    147.8570
ANGLE_2 = 2017-04-20T20:45:01.96     49.0895
ANGLE_1 = 2017-04-20T20:45:02.06    147.8371
ANGLE_2 = 2017-04-20T20:45:02.06     49.1288
ANGLE_1 = 2017-04-20T20:45:02.16    147.8176
ANGLE_2 = 2017-04-20T20:45:02.16     49.1686
ANGLE_1 = 2017-04-20T20:45:02.26    147.7984
ANGLE_2 = 2017-04-20T20:45:02.26     49.2088
ANGLE_1 = 2017-04-20T20:45:02.36    147.7789
ANGLE_2 = 2017-04-20T20:45:02.36     49.2487
ANGLE_1 = 2017-04-20T20:45:02.46    147.7587
ANGLE_2 = 2017-04-20T20:45:02.46     49.2882
ANGLE_1 = 2017-04-20T20:45:02.56    147.7384
ANGLE_2 = 2017-04-20T20:45:02.56     49.3270
ANGLE_1 = 2017-04-20T20:45:02.66    147.7186
ANGLE_2 = 2017-04-20T20:45:02.66     49.3656
ANGLE_1 = 2017-04-20T20:45:02.76    147.6985
ANGLE_2 = 2017-04-20T20:45:02.76     49.4047
ANGLE_1 = 2017-04-20T20:45:02.86    147.6784
ANGLE_2 = 2017-04-20T20:45:02.86     49.4438
ANGLE_1 = 2017-04-20T20:45:02.96    147.6581
ANGLE_2 = 2017-04-20T20:45:02.96     49.4835
ANGLE_1 = 2017-04-20T20:45:03.06    147.6378
ANGLE_2 = 2017-04-20T20:45:03.06     49.5234
ANGLE_1 = 2017-04-20T20:45:03.16    147.6174
ANGLE_2 = 2017-04-20T20:45:03.16     49.5629
ANGLE_1 = 2017-04-20T20:45:03.26    147.5971
ANGLE_2 = 2017-04-20T20:45:03.26     49.6026
ANGLE_1 = 2017-04-20T20:45:03.36    147.5767
ANGLE_2 = 2017-04-20T20:45:03.36     49.6426
ANGLE_1 = 2017-04-20T20:45:03.46    147.5562
ANGLE_2 = 2017-04-20T20:45:03.46     49.6830
ANGLE_1 = 2017-04-20T20:45:03.56    147.5361
ANGLE_2 = 2017-04-20T20:45:03.56     49.7236
ANGLE_1 = 2017-04-20T20:45:03.66    147.5163
ANGLE_2 = 2017-04-20T20:45:03.66     49.7636
ANGLE_1 = 2017-04-20T20:45:03.76    147.4957
ANGLE_2 = 2017-04-20T20:45:03.76     49.8030
ANGLE_1 = 2017-04-20T20:45:03.86    147.4745
ANGLE_2 = 2017-04-20T20:45:03.86     49.8423
ANGLE_1 = 2017-04-20T20:45:03.96    147.4538
ANGLE_2 = 2017-04-20T20:45:03.96     49.8814
ANGLE_1 = 2017-04-20T20:45:04.06    147.4332
ANGLE_2 = 2017-04-20T20:45:04.06     49.9207
ANGLE_1 = 2017-04-20T20:45:04.16    147.4124
ANGLE_2 = 2017-04-20T20:45:04.16     49.9608
ANGLE_1 = 2017-04-20T20:45:04.26    147.3914
ANGLE_2 = 2017-04-20T20:45:04.26     50.0010
ANGLE_1 = 2017-04-20T20:45:04.36    147.3704
ANGLE_2 = 2017-04-20T20:45:04.36     50.0411
ANGLE_1 = 2017-04-20T20:45:04.46    147.3493
ANGLE_2 = 2017-04-20T20:45:04.46     50.0810
ANGLE_1 = 2017-04-20T20:45:04.56    147.3282
ANGLE_2 = 2017-04-20T20:45:04.56     50.1214
ANGLE_1 = 2017-04-20T20:45:04.66    147.3071
ANGLE_2 = 2017-04-20T20:45:04.66     50.1619
ANGLE_1 = 2017-04-20T20:45:04.76    147.2867
ANGLE_2 = 2017-04-20T20:45:04.76     50.2027
ANGLE_1 = 2017-04-20T20:45:04.86    147.2658
ANGLE_2 = 2017-04-20T20:45:04.86     50.2435
ANGLE_1 = 2017-04-20T20:45:04.96    147.2443
ANGLE_2 = 2017-04-20T20:45:04.96     50.2839
ANGLE_1 = 2017-04-20T20:45:05.06    147.2227
ANGLE_2 = 2017-04-20T20:45:05.06     50.3236
ANGLE_1 = 2017-04-20T20:45:05.16    147.2013
ANGLE_2 = 2017-04-20T20:45:05.16     50.3630
ANGLE_1 = 2017-04-20T20:45:05.26    147.1797
ANGLE_2 = 2017-04-20T20:45:05.26     50.4025
ANGLE_1 = 2017-04-20T20:45:05.36    147.1584
ANGLE_2 = 2017-04-20T20:45:05.36     50.4428
ANGLE_1 = 2017-04-20T20:45:05.46    147.1367
ANGLE_2 = 2017-04-20T20:45:05.46     50.4832
ANGLE_1 = 2017-04-20T20:45:05.56    147.1151
ANGLE_2 = 2017-04-20T20:45:05.56     50.5237
ANGLE_1 = 2017-04-20T20:45:05.66    147.0932
ANGLE_2 = 2017-04-20T20:45:05.66     50.5643
ANGLE_1 = 2017-04-20T20:45:05.76    147.0715
ANGLE_2 = 2017-04-20T20:45:05.76     50.6048
ANGLE_1 = 2017-04-20T20:45:05.86    147.0497
ANGLE_2 = 2017-04-20T20:45:05.86     50.6453
ANGLE_1 = 2017-04-20T20:45:05.96    147.0278
ANGLE_2 = 2017-04-20T20:45:05.96     50.6862
ANGLE_1 = 2017-04-20T20:45:06.06    147.0058
ANGLE_2 = 2017-04-20T20:45:06.06     50.7272
ANGLE_1 = 2017-04-20T20:45:06.16    146.9837
ANGLE_2 = 2017-04-20T20:45:06.16     50.7685
ANGLE_1 = 2017-04-20T20:45:06.26    146.9616
ANGLE_2 = 2017-04-20T20:45:06.26     50.8090
ANGLE_1 = 2017-04-20T20:45:06.36    146.9395
ANGLE_2 = 2017-04-20T20:45:06.36     50.8488
ANGLE_1 = 2017-04-20T20:45:06.46    146.9172
ANGLE_2 = 2017-04-20T20:45:06.46     50.8886
ANGLE_1 = 2017-04-20T20:45:06.56    146.8949
ANGLE_2 = 2017-04-20T20:45:06.56     50.9289
ANGLE_1 = 2017-04-20T20:45:06.66    146.8727
ANGLE_2 = 2017-04-20T20:45:06.66     50.9696
ANGLE_1 = 2017-04-20T20:45:06.76    146.8503
ANGLE_2 = 2017-04-20T20:45:06.76     51.0107
ANGLE_1 = 2017-04-20T20:45:06.86    146.8278
ANGLE_2 = 2017-04-20T20:45:06.86     51.0517
ANGLE_1 = 2017-04-20T20:45:06.96    146.8053
ANGLE_2 = 2017-04-20T20:45:06.96     51.0924
ANGLE_1 = 2017-04-20T20:45:07.06    146.7827
ANGLE_2 = 2017-04-20T20:45:07.06     51.1335
ANGLE_1 = 2017-04-20T20:45:07.16    146.7601
ANGLE_2 = 2017-04-20T20:45:07.16     51.1751
ANGLE_1 = 2017-04-20T20:45:07.26    146.7374
ANGLE_2 = 2017-04-20T20:45:07.26     51.2167
ANGLE_1 = 2017-04-20T20:45:07.37    146.7146
ANGLE_2 = 2017-04-20T20:45:07.37     51.2580
ANGLE_1 = 2017-04-20T20:45:07.47    146.6918
ANGLE_2 = 2017-04-20T20:45:07.47     51.2992
ANGLE_1 = 2017-04-20T20:45:07.57    146.6689
ANGLE_2 = 2017-04-20T20:45:07.57     51.3395
ANGLE_1 = 2017-04-20T20:45:07.67    146.6460
ANGLE_2 = 2017-04-20T20:45:07.67     51.3796
ANGLE_1 = 2017-04-20T20:45:07.77    146.6229
ANGLE_2 = 2017-04-20T20:45:07.77     51.4201
ANGLE_1 = 2017-04-20T20:45:07.87    146.5997
ANGLE_2 = 2017-04-20T20:45:07.87     51.4611
ANGLE_1 = 2017-04-20T20:45:07.97    146.5766
ANGLE_2 = 2017-04-20T20:45:07.97     51.5025
ANGLE_1 = 2017-04-20T20:45:08.07    146.5535
ANGLE_2 = 2017-04-20T20:45:08.07     51.5440
ANGLE_1 = 2017-04-20T20:45:08.17    146.5301
ANGLE_2 = 2017-04-20T20:45:08.17     51.5851
ANGLE_1 = 2017-04-20T20:45:08.27    146.5067
ANGLE_2 = 2017-04-20T20:45:08.27     51.6265
ANGLE_1 = 2017-04-20T20:45:08.37    146.4835
ANGLE_2 = 2017-04-20T20:45:08.37     51.6683
ANGLE_1 = 2017-04-20T20:45:08.47    146.4598
ANGLE_2 = 2017-04-20T20:45:08.47     51.7106
ANGLE_1 = 2017-04-20T20:45:08.57    146.4363
ANGLE_2 = 2017-04-20T20:45:08.57     51.7524
ANGLE_1 = 2017-04-20T20:45:08.67    146.4126
ANGLE_2 = 2017-04-20T20:45:08.67     51.7937
ANGLE_1 = 2017-04-20T20:45:08.77    146.3889
ANGLE_2 = 2017-04-20T20:45:08.77     51.8345
ANGLE_1 = 2017-04-20T20:45:08.87    146.3653
ANGLE_2 = 2017-04-20T20:45:08.87     51.8752
ANGLE_1 = 2017-04-20T20:45:08.97    146.3413
ANGLE_2 = 2017-04-20T20:45:08.97     51.9162
ANGLE_1 = 2017-04-20T20:45:09.07    146.3175
ANGLE_2 = 2017-04-20T20:45:09.07     51.9574
ANGLE_1 = 2017-04-20T20:45:09.17    146.2935
ANGLE_2 = 2017-04-20T20:45:09.17     51.9992
ANGLE_1 = 2017-04-20T20:45:09.27    146.2695
ANGLE_2 = 2017-04-20T20:45:09.27     52.0411
ANGLE_1 = 2017-04-20T20:45:09.37    146.2454
ANGLE_2 = 2017-04-20T20:45:09.37     52.0826
ANGLE_1 = 2017-04-20T20:45:09.47    146.2212
ANGLE_2 = 2017-04-20T20:45:09.47     52.1243
ANGLE_1 = 2017-04-20T20:45:09.57    146.1972
ANGLE_2 = 2017-04-20T20:45:09.57     52.1664
ANGLE_1 = 2017-04-20T20:45:09.67    146.1728
ANGLE_2 = 2017-04-20T20:45:09.67     52.2088
ANGLE_1 = 2017-04-20T20:45:09.77    146.1484
ANGLE_2 = 2017-04-20T20:45:09.77     52.2513
ANGLE_1 = 2017-04-20T20:45:09.87    146.1240
ANGLE_2 = 2017-04-20T20:45:09.87     52.2933
ANGLE_1 = 2017-04-20T20:45:09.97    146.0993
ANGLE_2 = 2017-04-20T20:45:09.97     52.3341
ANGLE_1 = 2017-04-20T20:45:10.07    146.0749
ANGLE_2 = 2017-04-20T20:45:10.07     52.3751
ANGLE_1 = 2017-04-20T20:45:10.17    146.0502
ANGLE_2 = 2017-04-20T20:45:10.17     52.4165
ANGLE_1 = 2017-04-20T20:45:10.15    146.0500
ANGLE_2 = 2017-04-20T20:45:10.15     52.4169
ANGLE_1 = 2017-04-20T20:45:10.27    146.0253
ANGLE_2 = 2017-04-20T20:45:10.27     52.4588
